,City,Cloudiness,Country,Date,Humidity,Lat,Lng,Max Temp,Wind Speed
0,ushuaia,75,AR,1573254237,98,-54.81,-68.31,35.6,28.86
1,kloulklubed,90,PW,1573254283,94,7.04,134.26,75.2,9.17
2,bubaque,41,GW,1573254291,69,11.28,-15.83,84.02,13.35
3,soe,90,EE,1573254299,100,57.91,26.05,39.99,5.82
4,cape town,99,ZA,1573254208,63,-33.93,18.42,66,6.93
5,nabire,100,ID,1573254315,59,-3.36,135.5,86.16,0.45
6,san cristobal,62,HN,1573254323,93,14.68,-86.92,68.04,2.57
7,mataura,62,NZ,1573254330,78,-46.19,168.86,66.99,5.01
8,samarai,66,PG,1573254338,69,-10.62,150.67,84.11,4
9,ambovombe,0,MG,1573254346,94,-25.18,46.09,68.09,4.23
10,bredasdorp,100,ZA,1573254354,72,-34.53,20.04,63,18.34
11,port elizabeth,1,US,1573254302,37,39.31,-74.98,39.99,6.93
12,bima,0,ID,1573254370,69,-8.45,118.73,81.3,3.31
13,port alfred,97,ZA,1573254378,80,-33.59,26.89,57.99,3
14,fort-shevchenko,61,KZ,1573254385,70,44.51,50.26,51.15,15.52
15,kazalinsk,92,PT,1573254401,75,38.52,-28.7,61.12,2.3
16,ribeira grande,70,RU,1573254409,92,66.77,123.37,-14.46,13.58
17,zhigansk,73,GL,1573254417,29,69.22,-51.1,39.2,29.97
18,ilulissat,1,US,1573254425,57,22.08,-159.32,80.6,4.7
19,kapaa,75,PT,1573254432,63,33.08,-16.33,66.2,11.41
20,camacha,20,MX,1573254362,48,22.89,-109.91,91.4,16.11
21,cabo san lucas,4,PF,1573254448,78,-9.8,-139.03,80.17,13.89
22,atuona,0,GL,1573254456,58,77.48,-69.36,-4.69,6.26
23,qaanaaq,93,MR,1573254472,23,20.52,-13.05,74.1,6.38
24,barentsburg,75,GY,1573254487,88,6.8,-58.16,82.4,4.7
25,atar,0,YE,1573254495,65,13.06,44.88,76.5,6.55
26,umm durman,46,RU,1573254503,96,56.84,124.9,-15.98,2.06
27,georgetown,100,BR,1573254511,84,-20.21,-50.93,74.75,8.03
28,lahij,0,AR,1573254519,69,-46.43,-67.52,48.52,16.11
29,chulman,75,AU,1573254527,89,-42.78,147.06,55,12.75
30,santa fe do sul,1,US,1573254535,40,41.14,-73.36,37,14.99
31,mar del plata,49,CL,1573254542,58,-41.87,-73.83,57.2,8.05
32,new norfolk,75,US,1573254550,87,40.6,-124.16,66.99,8.05
33,westport,1,BR,1573254558,86,-30.17,-50.22,70.9,18.59
34,ancud,0,BG,1573254566,87,43.19,27.7,60.01,2.24
35,fortuna,94,RU,1573254574,97,73.51,80.55,-2.1,11.34
36,cidreira,0,OM,1573254582,54,22.69,58.55,69.12,1.1
37,beloslav,99,PF,1573254590,78,-23.12,-134.97,73.65,11.86
38,dikson,100,RU,1573254614,91,60.35,102.28,28.83,12.26
39,ibra,100,RU,1573254622,95,60.37,93.04,7.5,6.67
40,rikitea,90,CA,1573254630,77,69.44,-133.03,6.8,3.36
41,amderma,75,US,1573254638,75,31.33,-89.29,50,14.99
42,attawapiskat,20,US,1573254646,42,42.65,-73.75,30.2,9.17
43,vanavara,75,CA,1573254655,61,49.72,-86.95,14,4.7
44,severo-yeniseyskiy,75,CL,1573254663,56,-53.16,-70.91,42.8,24.16
45,tuktoyaktuk,75,AU,1573254671,64,-42.88,147.33,55,12.75
46,hattiesburg,20,ES,1573254679,64,29.06,-13.56,68,20.8
47,albany,90,CA,1573254687,78,54.77,-101.88,17.6,4.7
48,geraldton,27,GL,1573254695,38,60.72,-46.03,39.2,3.36
49,punta arenas,20,GR,1573254703,81,39.45,22.34,51.8,3.87
50,hobart,78,RU,1573254711,94,71.97,114.09,-14.07,11.74
51,teguise,90,CA,1573254719,66,55.74,-97.86,14,5.82
52,flin flon,100,BR,1573254727,95,-22.97,-42.02,72.68,7.05
53,qaqortoq,42,RU,1573254743,90,66.32,-179.17,14.88,6.4
54,saint george,84,RU,1573254751,74,59.36,143.24,17.2,21.47
55,saskylakh,100,AR,1573254766,73,-38.31,-60.23,54.55,8.19
56,thompson,20,MU,1573254774,82,-20.34,57.76,69.01,6.93
57,arraial do cabo,12,AU,1573254782,30,-34.58,150.85,66,16.11
58,louisbourg,93,RU,1573254790,95,66,57.56,11.44,12.73
59,egvekinot,75,EC,1573254798,69,-0.74,-90.35,77,10.29
60,okhotsk,0,OM,1573254805,73,17.01,54.1,77,3.36
61,nizhneyansk,96,RU,1573254813,89,50.68,156.12,28.65,13.15
62,barrow,1,IN,1573254821,95,15.34,74.49,65.43,1.5
63,bambous virieux,0,NA,1573254829,81,-22.12,14.28,64.99,1.01
64,flinders,20,ET,1573254837,62,8.96,38.73,57.2,5.82
65,usinsk,40,CO,1573254845,74,-3.77,-70.38,86,2.24
66,puerto ayora,90,CA,1573254853,66,51.26,-80.61,15.8,9.17
67,salalah,90,US,1573254860,92,60.79,-161.76,37.4,9.17
68,severo-kurilsk,40,BR,1573254868,74,-3.71,-38.6,80.6,10.29
69,vaini,100,KI,1573254876,63,3.07,172.79,84.65,6.71
70,henties bay,17,BW,1573254884,25,-20.21,26.19,83.73,8.32
71,lebu,24,NG,1573254892,56,8.85,5.42,78.03,1.88
72,puerto narino,78,PH,1573254900,74,13.32,122.68,82.24,9.15
73,moose factory,5,ZA,1573254908,91,-32.25,24.53,52.34,7.56
74,bethel,100,ID,1573254916,85,-2.08,101.38,65.25,0.69
75,vila velha,100,BR,1573254924,90,-20.63,-46,67.69,4.74
76,butaritari,100,RU,1573254932,89,63.29,118.35,5.41,8.48
77,nata,100,RU,1573254730,96,63.01,112.47,21.81,5.86
78,lafiagi,90,CA,1573254752,78,68.22,-135.01,10.4,5.82
79,san andres,100,GL,1573254955,55,65.61,-37.64,39.2,43.62
80,graaff-reinet,75,JP,1573254971,62,35.74,139.53,60.01,8.52
81,sungaipenuh,95,GL,1573254979,35,64.17,-51.74,39.2,3.36
82,ponta do sol,40,CA,1573254987,84,63.75,-68.52,6.8,9.17
83,nyurba,40,RU,1573254995,75,69.41,86.18,-18.41,8.95
84,chernyshevskiy,20,ID,1573255003,94,1.49,124.85,75.2,1.01
85,aklavik,40,CO,1573255010,88,5.66,-67.63,78.8,2.24
86,tasiilaq,99,RU,1573255018,96,67.46,153.71,-0.8,5.35
87,bocaranga,25,ID,1573255034,82,-5.36,104.98,73.13,3.67
88,nishihara,94,KZ,1573255050,75,48.59,57.19,34.2,10.92
89,nuuk,0,AU,1573255065,21,-23.58,149.07,83.19,11.7
90,iqaluit,90,RU,1573255073,89,71.64,128.87,-18.91,5.61
91,dudinka,100,ML,1573255081,23,22.68,-3.98,71.55,5.19
92,manado,0,RU,1573255097,84,64.73,177.51,8.6,4.47
93,puerto ayacucho,1,US,1573254953,63,43.59,-83.89,32,5.82
94,srednekolymsk,90,CA,1573255121,85,48.72,-86.38,19.4,14.32
95,asau,75,CA,1573255128,66,65.28,-126.83,12.2,11.41
96,pringsewu,84,RU,1573255136,74,68.75,161.3,11.7,4.72
97,illoqqortoormiut,75,US,1573255144,58,19.71,-155.08,86,6.93
98,shubarshi,92,CK,1573255152,74,-21.21,-159.78,78.8,11.41
99,umzimvubu,90,US,1573255154,87,40.8,-124.16,64.99,8.05
100,bluff,4,AU,1573255168,39,-33.21,138.6,55.81,8.77
101,tiksi,40,IN,1573255176,94,17.48,78.56,71.01,4.21
102,taoudenni,81,BR,1573255183,84,-15.89,-52.26,74.73,5.32
103,taolanaro,90,US,1573255199,38,39.95,-94.76,43,14.99
104,anadyr,75,IE,1573255207,93,51.55,-9.27,44.6,6.93
105,yanan,95,MV,1573255215,76,0.53,72.93,81.97,12.44
106,bay city,15,GL,1573255223,67,72.79,-56.15,5.85,9.31
107,marathon,0,RU,1573255231,55,50.72,136.64,15.75,3.22
108,norman wells,11,PY,1573255239,91,-26.98,-56.83,75.27,6.26
109,cherskiy,75,HN,1573255254,83,15.09,-87.97,80.6,5.82
110,hilo,51,ID,1573255262,71,-7.38,108.21,73.65,0.56
111,avarua,37,KE,1573255270,59,3.12,35.6,80.92,10.65
112,eureka,90,CA,1573255278,81,48.94,-125.55,52,12.75
113,jamestown,99,DK,1573255294,93,56.15,9.28,42.8,2.24
114,kapra,100,RU,1573255302,97,64.42,-173.23,27.82,8.79
115,barra do garcas,0,IR,1573255309,44,38.23,44.7,32.47,0.38
116,ilinsko-podomskoye,80,ZA,1573255317,92,-32.79,26.83,50.7,4.32
117,kodiak,100,CA,1573255325,96,50.56,-96.99,27,3
118,skibbereen,99,GL,1573255333,58,68.31,-53.46,37.08,20.67
119,thinadhoo,100,PG,1573255341,77,-2.57,150.8,83.71,12.59
120,upernavik,20,JP,1573255349,68,24.34,124.16,68,9.17
121,solnechnyy,20,JP,1573255357,87,33.93,134.5,50,9.17
122,san patricio,98,IE,1573255364,89,54.11,-9.15,45,11.99
123,vaitupu,44,NZ,1573255372,61,-46.28,169.85,64,11.01
124,amapa,95,RU,1573255380,99,70.62,147.9,-8.47,4.27
125,kawalu,82,BR,1573255388,93,-9.32,-36.47,67.84,5.64
126,lodwar,15,BR,1573255396,84,-6.22,-36.02,72.48,7.49
127,ucluelet,37,PE,1573255404,48,-15.27,-72.34,40.08,7.23
128,bolungarvik,84,RU,1573255412,94,52.17,40.48,39.74,5.48
129,bording,100,VN,1573255248,78,13.08,109.3,77.29,21.52
130,provideniya,69,PH,1573255427,91,13.8,121.11,80.01,3
131,ayan,0,PK,1573255435,46,30.83,72.08,62.04,6.73
132,alice,95,ID,1573255443,86,5.56,95.32,72.68,3.27
133,husavik,0,CN,1573255451,56,31.26,120.51,60.01,2.15
134,kangaatsiaq,0,AU,1573255459,62,-33.86,121.89,59,14.99
135,kavieng,100,BR,1573255467,79,-3.7,-45.5,79.12,3.83
136,ishigaki,75,US,1573255474,76,30.53,-89.68,53.01,9.17
137,katsuura,20,GB,1573255482,86,52.47,1.45,46,8.05
138,ballina,0,MG,1573255490,86,-24.69,44.75,66.22,2.73
139,kaitangata,96,RU,1573255498,93,62.59,40.61,16.66,4.59
140,chokurdakh,3,CN,1573255514,70,29.51,114.87,53.94,2.37
141,quebrangulo,90,AU,1573255522,66,-37.84,145.39,57,14.99
142,santa cruz,0,AU,1573255529,30,-33.64,115.35,75.99,10.27
143,orcopampa,50,RU,1573255537,84,66.56,67.8,1.69,5.7
144,dobrinka,100,CD,1573255553,77,-1.93,18.29,75.36,2.26
145,tuy hoa,75,CA,1573255561,54,45.36,-73.48,30.2,13.87
146,sabang,0,PT,1573255576,76,37.14,-8.45,55,3.36
147,shorkot,0,IR,1573255584,52,33.12,46.17,46.4,4.7
148,banda aceh,100,ZA,1573255592,76,-34.42,19.24,66,13
149,mudu,75,AU,1573255600,47,-34.85,139.16,62.01,16.11
150,esperance,99,UA,1573255608,97,48.47,22.6,51.01,31
151,pimentel,35,ZA,1573255616,40,-30.97,22.13,59.67,13.94
152,picayune,63,ID,1573255624,63,-6.89,109.67,80.56,6.87
153,broome,100,NA,1573255632,46,-22.45,18.97,74.17,16.02
154,ampanihy,100,CA,1573255648,96,50.25,-96.06,27,5.99
155,puksoozero,0,US,1573255656,51,37.17,-99.65,57.99,4
156,pemangkat,65,FR,1573255664,100,47.55,-2.56,46.99,4.7
157,honggang,92,PG,1573255672,72,-3.66,152.44,84.54,8.88
158,olinda,100,PG,1573255680,69,-2.67,141.3,81.75,5.86
159,busselton,29,RU,1573255688,52,54.72,135.31,11.82,23.11
160,aksarka,0,NA,1573255696,82,-22.95,14.51,64.99,4.7
161,jiddah,93,NG,1573255704,94,4.92,6.26,76.5,3
162,inongo,9,MX,1573255712,51,27.97,-114.04,73.4,14.23
163,saint-philippe,20,IR,1573255720,21,32.86,59.22,39.2,4.7
164,mys shmidta,100,CA,1573255603,91,55.28,-114.77,22.19,9.71
165,lagoa,2,NE,1573255736,12,18.74,7.39,83.86,9.22
166,mehran,3,TL,1573255760,37,-8.93,125.41,80.83,5.37
167,hermanus,90,CA,1573255478,85,49.79,-92.84,19.4,9.17
168,palmer,12,KE,1573255776,73,1.75,40.07,80.04,10.13
169,rakoshyno,0,SD,1573255784,25,14.2,24.66,68.11,4.59
170,carnarvon,40,US,1573255792,69,20.89,-156.47,82.4,9.17
171,pekalongan,96,EC,1573255687,97,-1.59,-79,50.85,2.1
172,gobabis,0,FR,1573255807,93,45.6,-0.6,41,3.36
173,aflu,40,AU,1573255815,64,-43.03,147.26,55.99,14.99
174,lac du bonnet,75,PG,1573255634,83,-9.47,147.16,82.4,9.17
175,sitka,20,US,1573255827,50,39.62,-77.74,36,4.7
176,ambon,22,IN,1573255839,39,23.83,71.61,73.24,15.19
177,namatanai,26,MW,1573255847,61,-13.8,32.89,74.39,11.23
178,vanimo,90,CA,1573255863,85,70.47,-68.59,19.4,9.17
179,chumikan,0,AU,1573255871,37,-16.99,145.42,88,11.41
180,walvis bay,20,JP,1573255878,59,43.11,144.15,37.4,4.7
181,yenagoa,1,US,1573255886,61,46.06,-118.33,54,1.43
182,guerrero negro,100,RU,1573255894,95,67.55,63.78,3.6,11.32
183,birjand,90,UA,1573255902,87,47.66,33.71,55.4,8.95
184,slave lake,20,CA,1573255808,54,43.26,-79.87,30.99,3.36
185,arlit,17,MZ,1573255918,63,-16.84,36.99,80.51,6.49
186,jahrom,75,IS,1573255926,69,64.25,-15.21,39.2,18.34
187,belushya guba,40,RU,1573255933,75,69.49,88.39,-18.41,11.18
188,airai,78,RU,1573255941,99,68.54,146.19,-10.79,2.08
189,dryden,20,MX,1573255750,39,24.59,-107.39,96.8,5.82
190,wajir,0,TR,1573255957,48,36.37,30.29,63.01,4.72
191,kutum,89,MR,1573255965,82,20.93,-17.03,66.2,9.17
192,kahului,69,NZ,1573255973,94,-35.17,173.16,73.99,19.04
193,guaranda,0,IR,1573255981,43,31.03,61.49,52.14,12.68
194,souillac,0,CY,1573255988,59,34.92,32.53,66.2,8.05
195,margate,99,RU,1573255996,99,65.85,74.49,-7.44,11.48
196,port moresby,0,NE,1573256004,25,13.05,3.19,81.16,5.48
197,vardo,90,VE,1573256020,86,8.02,-62.41,80.01,1.99
198,radhanpur,40,PT,1573256028,88,37.72,-25.43,62.6,6.93
199,mchinji,0,NO,1573256036,76,69.23,17.98,12.2,8.05
200,saleaula,20,MU,1573256044,88,-19.98,57.61,69.01,4.7
201,clyde river,0,LY,1573256051,62,29.03,21.55,62.87,8.12
202,mareeba,14,NO,1573256059,78,63.83,10.7,28.99,5.82
203,kushiro,67,PH,1573256067,77,11,122.67,80.33,4.12
204,walla walla,100,NZ,1573256075,86,-46.13,167.69,59.16,7.4
205,komsomolskiy,100,MN,1573256083,74,49.49,105.92,30.81,1.66
206,apostolove,90,CA,1573255808,93,50.02,-125.24,51.8,2.24
207,hamilton,95,CN,1573256099,74,38.48,106.21,39.99,3
208,mocuba,40,PT,1573256107,88,37.8,-25.58,62.6,6.93
209,hofn,0,PE,1573256114,100,-5.09,-81.11,62.6,12.75
210,talnakh,59,CL,1573256122,66,-42.48,-73.76,53.6,5.82
211,belaya gora,100,PH,1573255840,98,16.69,121.54,71.64,2.55
212,costa rica,0,IN,1573256138,59,28.82,79.22,65.23,5.12
213,kumluca,22,NZ,1573256146,67,-37.02,175.85,71.01,15.08
214,nouadhibou,9,GF,1573255956,83,4.94,-52.33,80.6,3.36
215,ahipara,71,ZA,1573256044,66,-33.02,27.91,63.75,3.18
216,zabol,85,CV,1573256169,80,14.9,-24.5,74.3,15.64
217,lasa,100,IT,1573256177,93,46.13,13.21,51.8,4.7
218,pangody,100,RU,1573256185,90,57.96,102.73,30.47,11.5
219,dosso,75,NO,1573256193,79,78.22,15.63,26.6,16.11
220,tulagi,24,BG,1573256201,100,41.53,24.68,57.2,5.82
221,upata,100,RU,1573256216,93,71.98,102.47,-8.56,19.3
222,vila franca do campo,5,BF,1573256224,30,13.07,-3.07,84.72,7.87
223,finnsnes,0,MA,1573256232,41,29.7,-9.73,56.14,0.89
224,cap malheureux,46,RU,1573256240,93,66.82,65.8,-2.55,9.66
225,jalu,100,CA,1573256248,76,47.57,-59.14,34.99,17.22
226,hovd,1,UY,1573256256,86,-33.69,-53.46,62.02,9.44
227,dingle,1,US,1573256264,58,40.33,-91.2,32,5.82
228,tuatapere,40,AU,1573256271,56,-36.24,149.13,42.8,18.34
229,darhan,84,RU,1573256279,94,62.09,49.59,8.31,3.49
230,campbell river,20,CA,1573256287,53,50.03,-66.88,27,8.05
231,yinchuan,12,ID,1573256295,56,-3.99,122.52,87.78,0.98
232,rabo de peixe,4,AU,1573256303,27,-30.33,149.78,64.4,12.75
233,paita,0,RU,1573256319,81,69.38,178.42,19.67,10.31
234,castro,100,RU,1573256326,94,68.05,39.51,15.91,5.91
235,santiago,20,IN,1573256334,72,10.57,72.64,81.23,7.16
236,kemri,97,ID,1573256342,92,1.74,98.78,72.93,1.59
237,tairua,20,CI,1573256350,88,5.29,-3.3,82.4,3.36
238,cayenne,78,NZ,1573256245,48,-45.87,170.5,68,18.01
239,east london,0,CN,1573256366,42,43.3,128.5,27.64,1.45
240,sao filipe,99,GL,1573256373,51,66.94,-53.67,27.16,9.46
241,tavagnacco,44,GB,1573256360,74,51.59,-3,37.99,3.36
242,ust-ilimsk,40,CA,1573256389,53,66.15,-65.72,24.8,4.7
243,longyearbyen,75,IE,1573256397,93,51.71,-8.52,48,10.29
244,milkovo,37,MZ,1573256405,74,-14.8,36.54,73.6,3.87
245,santa eulalia del rio,90,CA,1573256421,72,49.78,-74.86,14,8.05
246,khatanga,86,BR,1573256428,58,-2.19,-56.71,83.12,1.14
247,tougan,90,CL,1573256437,31,-32.83,-70.6,73.4,11.41
248,tiznit,72,RU,1573256444,93,66.04,60.13,4.78,15.77
249,kharp,20,MG,1573256452,88,-15.72,46.32,75.2,1.12
250,channel-port aux basques,90,RU,1573256460,91,65.95,111.51,-2.21,8.95
251,chuy,100,ID,1573256468,90,-1.19,100.47,68.04,1.39
252,basco,0,AL,1573256476,77,40.47,19.49,60.91,10.98
253,cooma,100,PH,1573256484,75,8.78,117.42,81.55,17.22
254,zheshart,86,BR,1573256492,79,-1.91,-60,78.12,0.43
255,port-cartier,3,GH,1573256500,89,4.87,-2.24,75.65,1.83
256,kendari,42,UA,1573256507,90,47.62,34.14,55.74,9.19
257,narrabri,41,KE,1573256515,92,-0.93,38.07,65.48,4.59
258,tsihombe,40,CL,1573256523,82,-29.95,-71.34,57.2,8.05
259,leningradskiy,47,LK,1573256531,93,5.97,80.42,75.33,3.67
260,ostrovnoy,29,AU,1573256539,38,-35.34,143.56,58.69,13.47
261,kavaratti,2,GB,1573256563,60,60.4,-1.35,39.2,2.24
262,sibolga,46,ZA,1573256570,80,-34.05,23.37,59.23,9.86
263,adiake,84,BR,1573256578,89,-7.8,-35.59,71.51,7.61
264,dunedin,20,SA,1573256586,76,18.39,42.45,60.8,3.36
265,dashitou,0,IR,1573256594,64,27.67,54.14,66.04,1.25
266,sisimiut,1,US,1573256602,44,39.12,-93.2,39,6.93
267,newport,0,CL,1573256610,10,-22.46,-68.93,71.6,24.16
268,pangnirtung,5,ZA,1573256626,20,-27.7,23.05,64.99,6.44
269,kinsale,98,GA,1573256633,97,1.63,11.31,69.26,2.8
270,cuamba,40,US,1573256641,88,28.19,-82.74,75.2,8.05
271,borama,20,MU,1573256649,88,-20.41,57.7,69.01,4.7
272,chapais,90,AU,1573256657,76,-37.83,140.78,51.8,14.99
273,nhamunda,100,RU,1573256665,87,63.05,179.32,24.71,12.35
274,los andes,90,AU,1573256673,49,-28.95,153.24,75.99,10.29
275,inta,11,RO,1573256069,93,43.97,25.33,48,1.01
276,mahajanga,75,CA,1573256688,78,62.45,-114.38,12.2,11.41
277,aykhal,63,NO,1573256704,92,71.03,27.85,17.6,10.29
278,duku,0,AU,1573256712,43,-19.26,146.82,91.99,5.82
279,vlore,20,JP,1573256720,74,43.32,145.57,35.6,3.36
280,panalingaan,100,CN,1573256728,89,33.91,106.52,45.82,1.83
281,boa esperanca,99,RU,1573256736,95,60.71,114.91,21.94,6.38
282,axim,92,SN,1573256743,78,14.95,-16.81,71.6,14.99
283,chortomlyk,20,GA,1573256751,88,-0.72,8.78,82.4,10.29
284,mwingi,0,NO,1573256767,92,70.66,23.68,21.2,2.24
285,coquimbo,75,US,1573256783,71,36.62,-121.92,71.01,5.82
286,weligama,90,CA,1573256798,100,47.66,-52.73,50,18.34
287,swan hill,74,BR,1573256806,74,-2.92,-39.92,78.87,10.65
288,skagastrond,81,AR,1573256814,43,-27.8,-64.26,85.96,6.2
289,pietarsaari,20,MU,1573256822,88,-20.21,57.76,69.01,4.7
290,brae,95,GA,1573256830,98,-1.13,12.47,71.94,1.5
291,plettenberg bay,96,CO,1573256838,94,3.17,-76.26,66.56,2.51
292,bom jardim,8,AU,1573256853,58,-15.77,128.74,86,6.93
293,faya,30,BR,1573256861,78,-5.2,-35.46,78.8,6.93
294,gerash,94,WS,1573256869,88,-13.87,-171.6,80.01,1.99
295,marshall,90,CA,1573256877,100,53.65,-115.58,39.2,9.17
296,calama,1,MK,1573256885,90,41.28,20.71,43.88,3.11
297,lolua,25,GE,1573256893,93,41.96,42.96,44.6,5.82
298,kathu,31,RU,1573256901,51,46.54,138.33,25.92,10.8
299,mongomo,100,US,1573256908,61,32.41,-87.02,51.8,9.17
300,holiday,75,RU,1573256916,92,65.99,60.32,4.6,11.63
301,mahebourg,90,FR,1573256924,100,49.65,0.71,46.4,5.82
302,mount gambier,40,US,1573256641,76,30.04,-94.42,53.6,4.7
303,beringovskiy,93,IN,1573256948,68,27.54,93.82,60.13,2.08
304,codrington,40,VG,1573256779,74,18.42,-64.62,82.4,9.17
305,alexandria,1,CN,1573256963,70,28.38,121.38,62.01,9.89
306,yellowknife,75,IS,1573256971,68,63.84,-22.43,41,27.51
307,acarau,64,RU,1573256979,92,61.69,53.69,10.33,2.55
308,mehamn,100,RU,1573256987,74,46.45,135.83,12.11,7.43
309,townsville,75,NG,1573256995,94,4.71,6.79,77,4.21
310,nemuro,93,MX,1573257003,66,23.82,-100.72,65.98,8.23
311,fengxian,66,BR,1573257011,81,-3.28,-39.27,75.74,5.93
312,lensk,67,CA,1573257019,79,46.12,-70.67,21.99,5.3
313,tivaouane,100,IN,1573257026,97,23.47,91.27,70.57,8.03
314,port-gentil,1,US,1573256809,39,36.19,-94.13,46.4,3.51
315,olafsvik,100,RU,1573257050,91,52.37,84.39,35.64,20.67
316,hammerfest,75,BN,1573256798,94,5.28,115.24,77,2.24
317,sataua,1,US,1573257066,57,31.76,-95.63,52,3.36
318,pacific grove,0,ZM,1573257074,33,-16.28,27.48,72.86,2.3
319,gorno-chuyskiy,8,ZM,1573257081,64,-10.55,32.07,67.82,4.88
320,torbay,20,US,1573256513,54,43.66,-70.25,30.99,10.29
321,itarema,75,JP,1573257097,71,35.73,140.83,54,5.82
322,santiago del estero,0,NL,1573257105,100,53.2,5.79,43,5.82
323,quatre cocos,0,LY,1573257121,39,29.16,16.14,67.87,13.67
324,koulamoutou,100,BR,1573257129,88,-23.78,-45.36,74.61,8.93
325,corinto,80,PE,1573257144,77,-5.23,-75.68,79.41,2.46
326,bentiu,1,US,1573257118,76,30.23,-93.22,51.8,6.93
327,kununurra,66,ID,1573257068,72,-7.95,110.28,78.12,3.13
328,touros,1,US,1573257004,63,44.37,-100.35,48.2,3.36
329,lufilufi,73,RU,1573257176,92,63.79,74.5,-3.05,16.11
330,mackay,89,ZM,1573257184,96,-11.73,24.43,60.4,3.87
331,poum,8,MV,1573257191,76,-0.6,73.08,81.61,9.15
332,khani,40,EC,1573257199,83,-0.9,-89.6,73.4,12.75
333,svetlaya,29,ZA,1573257207,90,-34,24.73,51.6,5.35
334,selma,90,CA,1573257215,80,52.13,-122.14,41,2.24
335,verkhnyaya inta,93,RU,1573257231,92,53.39,33.22,41.41,8.7
336,veraval,100,SA,1573257239,69,25.02,37.27,74.53,2.15
337,nome,0,AU,1573257246,34,-26.53,153.09,82.99,1.99
338,mizpe ramon,28,UY,1573257254,95,-34.48,-54.34,54.86,7.34
339,ziro,75,NU,1573257087,74,-19.06,-169.92,80.6,11.41
340,road town,3,HN,1573257270,75,16.45,-85.85,83.46,9.64
341,wenling,75,JP,1573257286,93,39.28,141.86,44.6,2.24
342,grindavik,96,BR,1573257293,79,-2.51,-66.09,79.59,1.88
343,ust-kulom,90,CA,1573257301,66,50.7,-127.42,51.8,10.29
344,vostok,1,US,1573257309,27,43.97,-111.68,55.4,5.82
345,abonnema,100,CD,1573257317,93,-0.28,20.88,72.05,1.74
346,cedral,85,NO,1573257325,64,67.67,12.69,32.52,9.64
347,trairi,33,GL,1573257333,80,60.14,-45.24,35.98,12.37
348,saint-georges,61,SN,1573257341,83,14.69,-16.54,77,13.87
349,sonamura,0,AU,1573257348,20,-25.3,152.85,84.2,17.22
350,samusu,2,SO,1573257356,76,9.49,50.81,80.1,12.35
351,springdale,58,CN,1573257364,75,28.28,88.52,23.74,0.38
352,bystryy istok,48,NZ,1573257372,73,-35.62,174.5,73.99,15.01
353,victoria,100,RU,1573257396,88,63.46,48.9,13.32,5.41
354,palestine,0,ID,1573257404,76,-9.65,120.26,81.77,6.2
355,monze,47,ML,1573257411,51,11.09,-6.89,81.09,3.4
356,chinsali,92,RU,1573257419,82,55.09,80.97,19.9,14.88
357,portland,90,MD,1573257427,93,47.01,28.86,59,8.05
358,hasaki,75,MX,1573257435,83,19.77,-89.85,80.6,13.87
359,leeuwarden,1,US,1573257443,67,64.86,-147.8,26.6,4.7
360,burica,100,IS,1573257451,84,63.44,-20.27,43.07,55.74
361,waddan,40,CO,1573257459,77,4.71,-74.23,62.6,6.93
362,ilhabela,79,CN,1573257466,65,32.84,110.81,51.13,2.75
363,miranorte,20,CA,1573257474,68,45.55,-75.29,28,4.7
364,lagunas,91,PH,1573257482,84,17.54,120.52,77.29,3.27
365,lake charles,1,US,1573257490,67,64.84,-147.72,21.2,4.7
366,bambanglipuro,86,RU,1573257498,72,50.38,90.44,10.87,6.8
367,pierre,25,RU,1573257506,77,68.06,166.44,3.51,3.06
368,muravlenko,99,ZM,1573257514,81,-13.68,24.8,65.73,4.59
369,mwinilunga,0,AU,1573257522,46,-31.97,141.45,53.6,18.34
370,hithadhoo,87,BR,1573257529,87,-1.68,-50.48,76.55,3.98
371,puerto baquerizo moreno,90,CA,1573257537,100,47.58,-53.28,50,18.34
372,kruisfontein,30,TZ,1573257545,68,-3.17,33.8,70.68,4.52
373,williams lake,77,CA,1573257553,89,43.74,-81.71,35.01,5.01
374,grand river south east,0,AZ,1573257561,76,40.01,48.48,48.2,11.41
375,kletnya,99,PG,1573257577,69,-4.06,144.07,84.67,3.62
376,umm lajj,86,KZ,1573257601,74,49.15,56.49,37.2,9.84
377,coolum beach,3,NG,1573257608,72,11.99,8.53,62.6,3
378,rocha,0,AF,1573257624,23,32.07,64.85,47.14,1.77
379,alofi,67,LY,1573257632,23,26.59,12.77,76.69,15.1
380,savannah bight,97,BW,1573257640,20,-25.27,23.28,78.76,2.8
381,bengkulu,100,RU,1573257648,87,58.45,92.17,22.06,10.04
382,kamaishi,100,RU,1573257656,98,56.27,91.08,33.21,8.75
383,fonte boa,0,AU,1573257663,19,-23.13,150.74,87.8,10.29
384,port hardy,65,CN,1573257672,61,23.17,112.28,63.37,1.63
385,saint anthony,0,AU,1573257681,54,-17.27,145.48,89.01,11.41
386,boende,20,TW,1573257618,73,22.62,120.31,72,6.93
387,sorland,2,OM,1573257696,60,23.6,58.55,73.4,2.24
388,nanortalik,90,US,1573257704,81,30.3,-99.24,48.2,3.36
389,gat,75,BR,1573257525,58,2.82,-60.67,87.8,3.36
390,hervey bay,0,DZ,1573257728,27,27.87,-0.29,64.4,11.41
391,bandarbeyla,90,RU,1573257736,95,59.7,30.79,33.01,6.71
392,gamba,100,ID,1573257743,92,-8.49,140.4,73.29,3.33
393,ngunguru,0,IN,1573257751,30,30.78,78.62,24.42,5.95
394,sentyabrskiy,100,FI,1573257759,93,63.93,24.96,19.99,5.86
395,tatawin,68,NO,1573257767,91,61.55,9.94,21.99,5.99
396,koslan,90,US,1573257775,93,43.37,-124.22,66,6.93
397,waingapu,15,AO,1573257783,84,-12.58,13.4,78.17,4.29
398,kolondieba,100,CA,1573257791,84,48.65,-53.11,48,1.99
399,chulym,90,EC,1573257799,88,-1.35,-80.58,75.2,14.99
400,chisinau,75,MX,1573257806,36,26.71,-108.33,90.36,8.16
401,hopelchen,80,CN,1573257830,56,37.15,111.77,46.85,2.86
402,college,1,US,1573257838,57,46.38,-120.31,53.6,0.89
403,vestmannaeyjar,0,IN,1573257846,47,30.52,75.88,64.27,7.99
404,mosquera,20,AU,1573257854,57,-27.58,153.3,86,13.87
405,yunyang,49,LR,1573257862,76,6.75,-11.37,82.45,5.59
406,rockland,20,PY,1573257869,62,-24.97,-57.57,84.2,5.82
407,san quintin,100,IT,1573257877,100,45.18,8.4,48.99,6.93
408,fairbanks,100,RU,1573257885,83,52.5,80.2,32.14,15.7
409,mugur-aksy,75,MX,1573257893,56,21.8,-100.93,69.8,11.41
410,bilibino,40,IN,1573257901,88,8.73,76.71,78.8,8.16
411,mufumbwe,99,RU,1573257909,92,59.63,112.75,29.12,10.04
412,broken hill,0,RU,1573257917,61,69.7,170.27,12.99,2.84
413,breves,45,AO,1573257925,82,-15.19,12.15,74.35,10.07
414,bay roberts,40,US,1573257443,51,36.85,-75.98,45,4.7
415,sola,90,KZ,1573257941,100,49.96,82.61,33.8,6.71
416,goderich,1,US,1573257949,41,34.64,-120.46,75.2,9.17
417,sabirabad,18,ID,1573257914,91,-0.9,119.87,73.36,1.48
418,tiruvottiyur,100,AR,1573257964,58,-38.55,-58.74,60.01,5.01
419,angoram,0,GR,1573257972,82,39.17,25.93,67.73,8.66
420,viligili,93,CN,1573257895,47,37.93,102.64,39.13,9.4
421,halalo,100,VN,1573257988,85,10.93,108.1,72.39,2.82
422,shubarkuduk,90,EC,1573257996,88,-0.8,-80.23,75.2,14.99
423,kano,0,AU,1573257800,40,-20.01,148.25,90,3.36
424,karaul,40,MX,1573258012,79,20.71,-105.21,86,8.05
425,sangin,1,US,1573258019,45,39.41,-74.36,39.2,6.93
426,awbari,10,NA,1573258027,93,-26.65,15.16,57.2,5.82
427,werda,20,PE,1573257944,78,-3.75,-73.25,82.4,3.36
428,yeniseysk,1,US,1573257903,26,42.54,-113.79,62.6,0.4
429,novochernorechenskiy,0,AU,1573258051,28,-25.24,130.99,71.6,17.22
430,yeppoon,28,PH,1573258059,73,8,124.29,80.01,4
431,lubu,9,MX,1573258067,80,20.87,-90.4,80.8,18.77
432,atherton,90,CA,1573258083,90,54.13,-108.44,32,6.93
433,kaohsiung,90,ES,1573257922,56,28.66,-17.92,69.8,16.11
434,muscat,69,AR,1573258099,71,-43.3,-65.11,50.65,14.07
435,harper,100,EE,1573258107,96,59.1,26.19,35.69,7.31
436,warqla,100,RU,1573258114,89,53.51,142.97,26.91,27.69
437,boa vista,100,RU,1573258122,76,60.47,166.1,22.1,12.53
438,adrar,5,MX,1573257898,74,16.86,-99.88,86,5.82
439,nikolskoye,6,RU,1573258138,59,49.22,143.1,26.22,13.89
440,merauke,89,MN,1573258146,45,46.68,113.28,33.82,11.97
441,lata,94,RU,1573258154,93,61.68,96.39,13.37,5.68
442,nivala,100,CN,1573258163,91,35.54,106.68,41.14,2.75
443,hundorp,9,AR,1573258170,75,-29.14,-59.64,74.55,8.81
444,coos bay,1,US,1573257971,47,46.41,-105.84,55.4,14.99
445,benguela,76,PT,1573258186,81,41.42,-6.55,40.98,9.04
446,bonavista,99,TZ,1573258194,81,-7.91,39.67,81.66,16.15
447,jipijapa,1,US,1573258202,46,33.19,-82.53,55.4,8.05
448,choix,73,BR,1573258210,76,-8.9,-35.15,79.5,16.26
449,barawe,20,BR,1573258219,83,-6.97,-34.84,77,9.17
450,bajo baudo,20,JP,1573258227,82,32.08,131.47,55.4,9.17
451,xiaoyi,91,MG,1573258236,81,-14.9,50.28,77.31,5.97
452,toppenish,75,LR,1573258243,94,5.88,-10.05,77,0.58
453,maler kotla,98,PF,1573258251,77,-16.48,-151.75,81.32,19.28
454,victoria point,100,ID,1573258259,80,-0.86,131.25,82.02,2.21
455,robertsport,97,CA,1573258267,95,60.75,-137.51,19.54,7.52
456,benjamin aceval,20,TZ,1573258275,94,-4.88,29.64,69.8,6.13
457,vila,75,BR,1573258283,94,-23.68,-45.44,68,2.13
458,rodino,20,KZ,1573258291,92,43.36,77.47,28.4,2.24
459,villa de reyes,100,US,1573258299,62,46.54,-87.4,25,5.82
460,varkkallai,64,PE,1573258308,82,-9.08,-78.59,63.16,6.62
461,peleduy,1,US,1573258316,71,31.71,-98.99,51.8,4.27
462,pevek,100,RU,1573258324,94,65.73,150.89,-3.93,18.32
463,namibe,0,RU,1573258332,88,59.43,62.35,7.12,3.22
464,virginia beach,99,RU,1573258340,87,54.34,53.68,30.52,12.01
465,oskemen,100,BR,1573258348,67,-0.41,-65.02,82.65,1.63
466,lompoc,97,RU,1573258356,92,56.17,113.57,13.39,3.76
467,palu,90,YT,1573258371,83,-12.79,45.27,82.4,9.17
468,necochea,2,RU,1573258380,91,63.92,127.47,-20.17,5.55
469,eresos,1,US,1573258203,68,41.47,-87.06,30.2,3.36
470,wuwei,1,US,1573258396,64,38.3,-77.46,37.99,4.7
471,phan thiet,1,US,1573258404,63,40.16,-83.08,30.2,2.3
472,melilla,100,RU,1573258412,94,65.58,-170.99,27.45,13.76
473,bowen,75,CA,1573258420,53,48.06,-66.37,26.6,8.05
474,ixtapa,0,RU,1573258427,88,58.97,126.27,-12.86,2.8
475,brigantine,75,NI,1573258435,88,12.92,-85.84,71.6,4.7
476,luderitz,45,CN,1573258451,45,40.12,124.37,41.94,6.76
477,iquitos,100,NI,1573258459,1,11.12,-84.78,75.99,15.99
478,burley,96,SO,1573258467,79,2.04,45.34,80.74,8.39
479,yulara,95,RU,1573258475,60,53.6,91.39,41,8.95
480,marawi,75,CA,1573258219,73,60.72,-135.06,23,16.11
481,celestun,75,BR,1573258491,78,-5.54,-35.82,78.8,6.93
482,gulshat,34,CF,1573258499,100,4.33,18.53,75.2,1.99
483,meadow lake,43,CD,1573258507,72,-7.04,29.77,78.39,7.07
484,los llanos de aridane,28,AR,1573258443,17,-38.95,-68.06,71.6,9.17
485,rawson,70,ID,1573258522,80,4.14,96.13,79.34,5.68
486,vao,90,CR,1573258530,78,10.15,-85.45,80.6,3.36
487,ekhabi,5,MX,1573258538,62,15.86,-97.07,86,4.7
488,tilichiki,1,US,1573258546,86,38.48,-82.64,33.8,1.92
489,acapulco,75,BR,1573258554,78,-6.09,-35.21,78.8,6.93
490,poronaysk,0,GP,1573258562,88,15.88,-61.31,80.6,4.7
491,baruun-urt,39,NG,1573258570,63,7.87,9.78,78.46,3
492,baykit,100,CN,1573258578,93,36.62,101.77,35.96,1.36
493,pingliang,75,PE,1573258586,82,-13.71,-76.2,64.4,17.22
494,reconquista,75,CV,1573258593,69,15.13,-23.22,75.2,17.22
495,miles city,20,JP,1573258601,76,35.55,133.23,55.4,5.82
496,saldanha,90,US,1573258609,87,27.91,-97.15,55,13.87
497,kilindoni,100,PG,1573258617,76,-2.02,147.27,83.57,8.99
498,avera,95,GA,1573258625,79,-1.58,14.26,74.93,1.23
499,sao jose da coroa grande,20,BR,1573258633,64,-16.02,-48.01,75.2,4.7
500,cabedelo,90,US,1573258641,93,55.34,-131.65,51.8,28.86
501,shintomi,98,AU,1573258649,15,-20.73,139.49,82.4,20.8
502,antalaha,100,RU,1573258657,93,51.6,82.29,32.13,24.92
503,buchanan,0,KZ,1573258665,37,43.35,52.85,47.19,12.26
504,faanui,75,JP,1573258673,72,34.7,138.93,60.8,16.11
505,sorong,40,RU,1573258680,80,53.05,158.65,33.8,4.47
506,haines junction,0,ES,1573258688,78,38.68,-7.1,44.01,1.99
507,kigoma,20,FR,1573258696,100,48.19,0.65,39,5.03
508,porto novo,0,GR,1573258704,82,37.83,24.93,64.99,5.82
509,esik,31,RO,1573258720,100,44.65,26.83,64,3.36
510,marquette,0,AU,1573258728,20,-29.46,149.84,68,25.28
511,chimbote,34,CN,1573258735,61,25.86,114.93,56.23,3.96
512,brownwood,81,NG,1573258743,37,10.41,10.6,76.77,2.64
513,zyryanka,1,US,1573258751,52,35.09,-78.48,45,6.93
514,gari,75,IT,1573258759,93,45.88,10.89,50,9.17
515,nizhnetroitskiy,84,PH,1573258767,82,7.45,126.58,78.4,1.01
516,santa isabel do rio negro,0,NO,1573258775,72,63.87,11.3,27,5.82
517,severomuysk,25,PH,1573258783,73,13.13,123.76,81.75,3.94
518,gangotri,73,BR,1573258790,76,-9.01,-35.22,79.5,16.26
519,dzaoudzi,99,TH,1573258798,94,11.21,99.51,75.2,3.36
520,sangar,3,ML,1573258806,17,16.42,-3.66,83.23,9.62
521,valparaiso,0,CN,1573258814,50,47.72,128.88,19.13,4.09
522,fredericksburg,98,AU,1573258822,14,-20.31,118.58,93.2,10.29
523,powell,61,CN,1573258830,67,23.48,111.3,59.97,2.59
524,lavrentiya,1,BR,1573258838,86,-33.52,-53.37,62.02,9.44
525,dalhousie,66,ID,1573258846,72,-7.94,110.25,78.12,3.13
526,tommot,1,US,1573258853,33,33.13,-107.25,63,3.36
527,san ramon,4,GR,1573258861,87,36.8,21.96,62.01,3.36
528,paradwip,1,US,1573258869,53,34.15,-119.2,86,4.7
529,dandong,49,BW,1573258877,11,-26.02,22.4,69.62,5.39
530,san carlos,0,JP,1573258885,81,37.4,136.9,51.8,3.36
531,mogadishu,0,AU,1573258893,46,-14.25,129.55,89.74,7.81
532,belyy yar,18,AU,1573258901,46,-35.53,144.96,59,15.01
533,whitehorse,0,NO,1573258909,85,71,24.66,19.4,5.97
534,joao camara,49,PT,1573258895,94,40.36,-7.35,45,4.18
535,bimbo,12,BR,1573258924,80,-9.87,-56.08,75.58,3.58
536,moba,43,NG,1573258932,65,7.38,8.57,79.74,3.36
537,neuquen,90,CA,1573258940,87,54.32,-130.32,50,16.11
538,meulaboh,0,IN,1573258948,96,13.98,75.3,66.29,0.51
539,nicoya,90,CA,1573258956,87,48.82,-124.05,48.2,2.24
540,puerto escondido,74,BR,1573258964,69,-15.46,-55.75,82.4,10.29
541,ashland,0,NE,1573258972,17,18.69,12.92,77,7.65
542,nisia floresta,0,RU,1573258979,69,49.8,129.4,13.03,6.93
543,grand-bourg,0,AR,1573258987,44,-31.62,-60.7,81,8.01
544,wukari,40,MX,1573259003,69,16.38,-93.6,77,13.87
545,xining,98,LK,1573259011,96,7.35,80.68,70.12,2.42
546,pisco,90,RU,1573259019,93,52.65,90.1,26.49,6.26
547,vila do maio,0,NO,1573259027,56,70.03,20.97,28,6.04
548,sakaiminato,69,PE,1573259034,79,-10.07,-78.15,63.32,3.15
549,aransas pass,0,ER,1573259042,25,13.93,41.69,83.59,3.56
